<!DOCTYPE flight_plan SYSTEM "../flight_plan.dtd">

<flight_plan alt="223" ground_alt="103" lat0="52.5037920" lon0="-0.5979750" max_dist_from_home="1000" name="Basic" qfu="220" security_height="25">
  <header>
#include "subsystems/datalink/datalink.h"
</header>
  <waypoints>
    <waypoint lat="52.5037920" lon="-0.5979750" name="HOME"/>
    <waypoint alt="223.0" lat="52.503290" lon="-0.598423" name="STDBY"/>
    <waypoint name="MOB" x="200.3" y="361.1"/>
    <waypoint alt="215.0" name="AF" x="137.2" y="55.9"/>
    <waypoint alt="185.0" name="TD" x="78.4" y="-8.5"/>
    <waypoint name="_BASELEG" x="79.5" y="116.7"/>
    <waypoint name="CLIMB" x="118.0" y="107.6"/>
    <waypoint alt="223.0" lat="52.5032745" lon="-0.5971540" name="D2"/>
    <waypoint alt="223.0" lat="52.5067281" lon="-0.5929796" name="D3"/>
    <waypoint alt="223.0" lat="52.5070689" lon="-0.5989243" name="D4"/>
    <waypoint alt="223.0" lat="52.5039169" lon="-0.5977624" name="D5"/>
    <waypoint alt="223.0" lat="52.504597" lon="-0.595169" name="ACCIDENT"/>
    <waypoint alt="223.0" lat="52.5106722" lon="-0.5867972" name="GK"/>
    <waypoint alt="223.0" lat="52.5019178" lon="-0.6011632" name="CIR"/>
  </waypoints>
  <!--variables>
    <variable var="nb_glides" init="0" type="int"/>
  </variables-->
  <blocks>
    <block name="Wait GPS">
      <set value="1" var="autopilot.kill_throttle"/>
      <while cond="!GpsFixValid()"/>
    </block>
    <block name="Geo init">
      <while cond="LessThan(NavBlockTime(), 10)"/>
      <call_once fun="NavSetGroundReferenceHere()"/>
    </block>
    <block name="Holding point">
      <set value="1" var="autopilot.kill_throttle"/>
      <attitude roll="0" throttle="0" vmode="throttle"/>
    </block>
    <block group="home" key="t" name="Takeoff" strip_button="Takeoff (wp CLIMB)" strip_icon="takeoff.png">
      <exception cond="GetPosAlt() > GetAltRef()+25" deroute="Standby"/>
      <set value="0" var="autopilot.kill_throttle"/>
      <set value="0" var="autopilot.flight_time"/>
      <go from="HOME" pitch="15" throttle="1.0" vmode="throttle" wp="CLIMB"/>
    </block>
    
    <block group="home" key="Ctrl+a" name="Standby" strip_button="Standby" strip_icon="home.png">
      <circle radius="nav_radius" wp="STDBY" until="NavCircleCount() > 1.5" alt="GetAltRef()+60"/>
      <deroute block="DS4_route"/>
    </block>
    <!--block group="DS2" name="circle_D4" strip_button="circle_D4">
      <circle radius="50" wp="D4" until="NavCircleCount() > 1" alt="GetAltRef()+120"/>
      <circle radius="nav_radius" wp="D4" until="NavCircleCount() > 1" alt="GetAltRef()+120"/>
      <deroute block="DS6_route"/>
    </block-->
    <block group="DS4" name="DS4_route" strip_button="DS4_route" strip_icon="path.png">
      <go wp="D4"/>
      <go wp="D3" approaching_time="0"/>
      <go wp="D2"/>
      <go wp="CIR"/>
      <deroute block="wait"/>
    </block>

    <block group="DS4" name="wait" strip_button="wait">
      <circle wp="STDBY" radius="nav_radius" alt="GetAltRef()+120"/>
    </block>
    
    <block group="land" name="Land Right AF-TD" strip_button="Land right (wp AF-TD)" strip_icon="land-right.png">
      <set value="DEFAULT_CIRCLE_RADIUS" var="nav_radius"/>
      <deroute block="land"/>
    </block>
    <block group="land" name="Land Left AF-TD" strip_button="Land left (wp AF-TD)" strip_icon="land-left.png">
      <set value="-DEFAULT_CIRCLE_RADIUS" var="nav_radius"/>
      <deroute block="land"/>
    </block>
    <block name="land">
      <call_once fun="nav_compute_baseleg(WP_AF, WP_TD, WP__BASELEG, nav_radius)"/>
      <circle radius="nav_radius" until="NavCircleCount() > 0.5" wp="_BASELEG"/>
      <circle radius="nav_radius" until="And(NavQdrCloseTo(DegOfRad(baseleg_out_qdr)-(nav_radius/fabs(nav_radius))*10), 10 > fabs(GetPosAlt() - WaypointAlt(WP__BASELEG)))" wp="_BASELEG"/>
    </block>
    <block name="final">
      <exception cond="GetAltRef() + 10 > GetPosAlt()" deroute="flare"/>
      <go from="AF" hmode="route" vmode="glide" wp="TD"/>
    </block>
    <block name="flare">
      <go approaching_time="0" from="AF" hmode="route" throttle="0.0" vmode="throttle" wp="TD"/>
      <attitude roll="0.0" throttle="0.0" until="FALSE" vmode="throttle"/>
    </block>
  </blocks>
</flight_plan>
